{
    "lakes": [
        {
            "GLS_ID": "HYLA00013962",
            "RGN_0_NM": "Deutschland",
            "RGN_1_NM": "Bayern",
            "NAME": "Amersee",
            "AREA_QTY": 47.1,
            "MN_LAT": 47.933,
            "MX_LAT": 48.077,
            "MN_LON": 11.093,
            "MX_LON": 11.176
        },
        {
            "GLS_ID": "HYLA00013966",
            "RGN_0_NM": "Deutschland",
            "RGN_1_NM": "Bayern",
            "NAME": "Starnberger See",
            "AREA_QTY": 56.88,
            "MN_LAT": 47.818,
            "MX_LAT": 47.999,
            "MN_LON": 11.262,
            "MX_LON": 11.364
        },
        {
            "GLS_ID": "nan",
            "RGN_0_NM": "Deutschland",
            "RGN_1_NM": "Bayern",
            "NAME": "Ismaninger Speichersee",
            "AREA_QTY": 5.8,
            "MN_LAT": 48.203144,
            "MX_LAT": 48.228379,
            "MN_LON": 11.704855,
            "MX_LON": 11.797714
        },
        {
            "GLS_ID": "nan",
            "RGN_0_NM": "Deutschland",
            "RGN_1_NM": "Bayern",
            "NAME": "Walchensee",
            "AREA_QTY": 16.4,
            "MN_LAT": 47.568,
            "MX_LAT": 47.618,
            "MN_LON": 11.306,
            "MX_LON": 11.393
        },
        {
            "GLS_ID": "nan",
            "RGN_0_NM": "Deutschland",
            "RGN_1_NM": "Bayern",
            "NAME": "Waginger See",
            "AREA_QTY": 9,
            "MN_LAT": 47.919,
            "MX_LAT": 47.953,
            "MN_LON": 12.735,
            "MX_LON": 12.807
        }

    ]
}
